,City,Country,Date,Cloudiness,Humidity,Lat,Lng,Max Temp,Wind Speed
0,Rikitea,PF,1570421172,100,86,-23.12,-134.97,23.19,5.06
1,Saskylakh,RU,1570421172,90,95,71.97,114.09,-7.45,2.87
2,Busselton,AU,1570421023,3,33,-33.64,115.35,22.22,3.65
3,Tazovskiy,RU,1570421172,96,85,67.47,78.7,1.78,10.08
4,Vaini,IN,1570421172,40,94,15.34,74.49,23.0,1.06
5,Jamestown,AU,1570421173,100,69,-33.21,138.6,14.3,5.58
6,Tessalit,ML,1570420947,87,11,20.2,1.01,30.27,3.78
7,Praia da Vitoria,PT,1570421173,40,88,38.73,-27.07,23.0,6.34
8,Fort Saint James,CA,1570421173,100,65,54.43,-124.25,7.96,4.84
9,Itamaraca,BR,1570420880,40,83,-7.75,-34.83,25.0,3.6
10,Tiksi,RU,1570421173,91,92,71.64,128.87,-4.21,2.37
11,Ketchikan,US,1570421087,90,87,55.34,-131.65,11.0,6.2
12,Chokurdakh,RU,1570421173,100,86,70.62,147.9,-6.09,2.84
13,Mahebourg,MU,1570421173,40,88,-20.41,57.7,23.0,6.2
14,Tasiilaq,GL,1570421174,79,93,65.61,-37.64,4.0,1.3
15,Buchanan,LR,1570421174,75,100,5.88,-10.05,24.0,6.27
16,Palmer,AU,1570421174,75,87,-34.85,139.16,17.22,5.7
17,Nanortalik,GL,1570421174,0,79,60.14,-45.24,4.52,0.42
18,Mataura,NZ,1570421174,90,45,-46.19,168.86,15.34,5.26
19,Shimoda,JP,1570421174,75,73,34.7,138.93,26.67,7.7
20,Klaksvik,FO,1570421099,80,76,62.23,-6.59,11.0,15.4
21,Sao Borja,BR,1570420894,77,92,-28.66,-56.0,13.94,3.02
22,Albany,US,1570421163,90,82,42.65,-73.75,19.0,4.6
23,Puerto Ayora,EC,1570421174,8,97,-0.74,-90.35,17.78,2.68
24,Leningradskiy,RU,1570421175,48,74,69.38,178.42,-4.13,2.02
25,Jagdispur,IN,1570421175,40,70,25.47,84.42,30.0,1.5
26,Yellowknife,CA,1570421175,90,93,62.45,-114.38,2.0,7.2
27,Port Elizabeth,US,1570421073,90,77,39.31,-74.98,22.0,3.1
28,Port Alfred,ZA,1570421103,100,93,-33.59,26.89,17.78,4.2
29,Qaanaaq,GL,1570421175,100,77,77.48,-69.36,-6.74,7.67
30,Morondava,MG,1570421175,0,70,-20.3,44.28,25.27,4.63
31,East London,ZA,1570421175,75,100,-33.02,27.91,17.0,5.7
32,Caravelas,BR,1570421176,0,86,-17.73,-39.27,22.74,3.43
33,Richards Bay,ZA,1570421176,75,88,-28.77,32.06,20.83,7.53
34,Talnakh,RU,1570421176,90,96,69.49,88.39,0.0,4.0
35,Arraial do Cabo,BR,1570421030,80,89,-22.97,-42.02,21.66,2.42
36,Ushuaia,AR,1570421038,40,80,-54.81,-68.31,2.0,5.7
37,Calama,CL,1570421176,0,15,-22.46,-68.93,8.89,6.2
38,Broken Hill,AU,1570421176,0,33,-31.97,141.45,23.0,5.7
39,Hilo,US,1570421066,20,54,19.71,-155.08,28.0,1.5
40,Ossora,RU,1570421176,100,84,59.24,163.07,-0.27,14.07
41,Cabra,ES,1570421176,79,66,37.47,-4.43,18.33,0.6
42,Pradopolis,BR,1570421177,0,94,-21.36,-48.07,20.0,3.1
43,Zhongxing,CN,1570421177,35,70,19.57,109.85,28.73,1.74
44,Nikolskoye,RU,1570421177,0,92,59.7,30.79,1.11,1.0
45,Atuona,PF,1570421177,0,68,-9.8,-139.03,26.85,6.14
46,Nishihara,JP,1570421177,40,69,35.74,139.53,27.22,5.1
47,Namatanai,PG,1570421177,59,79,-3.66,152.44,27.45,4.87
48,Carballo,ES,1570421177,0,100,43.21,-8.69,11.11,2.6
49,Lebanon,US,1570421178,90,100,40.34,-76.42,20.0,3.68
50,Kloulklubed,PW,1570421091,75,66,7.04,134.26,31.0,2.6
51,Hofn,IS,1570421178,100,99,64.25,-15.21,3.33,5.96
52,Hermanus,ZA,1570421178,32,91,-34.42,19.24,13.89,1.34
53,Taltal,CL,1570421178,0,76,-25.41,-70.49,11.26,1.41
54,Namibe,AO,1570421178,98,76,-15.19,12.15,19.97,3.93
55,Dingle,PH,1570421178,63,72,11.0,122.67,29.26,3.81
56,Neya,RU,1570421179,100,100,58.29,43.89,2.52,2.76
57,Golden,US,1570420666,1,52,39.76,-105.22,10.0,3.18
58,Butaritari,KI,1570421067,0,63,3.07,172.79,29.25,1.21
59,Victoria,BN,1570421061,75,74,5.28,115.24,30.0,2.1
60,Kapaa,US,1570421042,90,94,22.08,-159.32,28.0,5.1
61,Port Lincoln,AU,1570421179,32,72,-34.72,135.86,13.69,9.06
62,Upernavik,GL,1570421179,0,76,72.79,-56.15,-1.99,2.02
63,Sur,OM,1570421179,0,68,22.57,59.53,26.97,3.88
64,New Norfolk,AU,1570421180,75,44,-42.78,147.06,14.44,4.1
65,Baturaja,ID,1570421180,0,33,-4.12,104.17,32.71,2.45
66,Bethel,US,1570421074,90,56,60.79,-161.76,7.0,2.6
67,Beringovskiy,RU,1570421180,100,98,63.05,179.32,0.39,14.35
68,Mackay,CA,1570421180,40,45,53.65,-115.58,10.0,3.1
69,Suntar,RU,1570421180,96,96,62.16,117.65,0.96,3.31
70,Barrow,AR,1570421180,97,40,-38.31,-60.23,16.3,9.47
71,Khajuraho,IN,1570421180,0,69,24.85,79.93,28.0,1.0
72,Dabhol,IN,1570421180,35,78,17.6,73.17,27.53,2.79
73,Eyl,SO,1570421181,0,74,7.98,49.82,25.06,3.91
74,Kupang,ID,1570421181,0,70,-10.16,123.6,25.53,5.26
75,Norman Wells,CA,1570421040,75,68,65.28,-126.83,-1.0,1.5
76,Kodiak,US,1570421181,1,76,39.95,-94.76,11.0,2.6
77,Tikrit,IQ,1570421181,0,33,34.62,43.68,22.57,3.4
78,Longyearbyen,NO,1570421181,75,90,78.22,15.63,0.0,5.7
79,Tura,RU,1570421181,100,93,64.27,100.22,-2.64,2.57
80,Swan Hill,AU,1570421182,99,37,-35.34,143.56,20.03,4.93
81,Punta Arenas,CL,1570421034,20,55,-53.16,-70.91,4.0,4.6
82,Oxford,US,1570421167,1,78,33.61,-85.83,23.0,3.1
83,Awbari,LY,1570421182,0,28,26.59,12.77,20.83,2.71
84,Tuktoyaktuk,CA,1570421030,90,92,69.44,-133.03,-1.0,5.7
85,Bandarbeyla,SO,1570421182,10,79,9.49,50.81,24.55,3.59
86,Guayaquil,EC,1570420892,0,73,-2.18,-79.88,24.0,6.2
87,Witney,GB,1570420997,75,93,51.78,-1.49,11.11,0.5
88,Bluff,AU,1570421182,0,17,-23.58,149.07,34.54,2.77
89,Tuatapere,NZ,1570421182,100,67,-46.13,167.69,12.44,6.09
90,Avarua,CK,1570421182,100,53,-21.21,-159.78,22.0,4.1
91,Lexington Park,US,1570421183,90,73,38.26,-76.45,22.78,4.6
92,Bredasdorp,ZA,1570421025,0,82,-34.53,20.04,14.0,1.5
93,Komsomolskiy,RU,1570421183,99,90,67.55,63.78,0.13,7.34
94,Ponta Delgada,PT,1570421183,75,100,37.73,-25.67,23.33,5.7
95,Labuhan,ID,1570421183,100,49,-2.54,115.51,32.78,0.98
96,Porbandar,IN,1570421183,0,83,21.64,69.61,27.0,2.1
97,Lipin Bor,RU,1570421183,100,93,60.26,37.97,-0.38,3.55
98,Clyde River,CA,1570421183,1,92,70.47,-68.59,-7.0,2.1
99,Guerrero Negro,MX,1570421184,0,77,27.97,-114.04,20.9,6.57
100,Tianpeng,CN,1570421184,100,70,28.88,112.34,16.21,3.31
101,Provideniya,RU,1570421184,90,80,64.42,-173.23,2.0,5.0
102,Bocaiuva,BR,1570421184,0,49,-17.12,-43.81,23.0,2.97
103,Northam,AU,1570421184,0,37,-31.65,116.67,22.0,5.1
104,Zhezkazgan,KZ,1570421184,40,26,47.8,67.71,9.0,4.0
105,Kununurra,AU,1570421184,75,36,-15.77,128.74,35.0,3.6
106,Saint-Philippe,CA,1570421184,90,87,45.36,-73.48,16.67,5.1
107,Shediac,CA,1570421185,90,76,46.22,-64.55,12.22,5.7
108,Chuy,UY,1570421185,0,90,-33.69,-53.46,12.75,3.71
109,Yar-Sale,RU,1570421185,0,76,66.83,70.83,1.2,9.49
110,Vao,EE,1570421185,100,85,59.1,26.19,4.13,2.75
111,Dondo,MZ,1570421185,0,95,-19.62,34.74,17.26,0.49
112,Kouroussa,GN,1570421185,100,98,10.65,-9.88,21.39,2.03
113,Necochea,AR,1570421058,67,57,-38.55,-58.74,15.56,7.6
114,Luderitz,NA,1570421185,0,71,-26.65,15.16,14.0,5.7
115,Phan Thiet,VN,1570421186,100,67,10.93,108.1,28.45,2.05
116,Severo-Kurilsk,RU,1570421186,0,81,50.68,156.12,7.73,8.47
117,Pevek,RU,1570421186,100,78,69.7,170.27,-1.73,6.09
118,Baghdad,IQ,1570421121,0,49,33.3,44.38,23.0,1.5
119,Cidreira,BR,1570421186,91,87,-30.17,-50.22,14.8,2.58
120,Cape Town,ZA,1570421182,20,93,-33.93,18.42,15.56,2.6
121,Usinsk,RU,1570421186,100,95,66.0,57.56,-1.04,2.57
122,Carutapera,BR,1570421186,2,83,-1.2,-46.02,25.45,2.26
123,Mehamn,NO,1570421186,40,100,71.03,27.85,5.0,1.0
124,Champerico,MX,1570421187,75,73,16.38,-93.6,25.0,6.2
125,Margate,AU,1570421187,75,44,-43.03,147.26,14.44,4.1
126,Narsaq,GL,1570421187,40,34,60.91,-46.05,11.0,8.7
127,Hervey Bay,AU,1570421187,0,58,-25.3,152.85,28.0,7.2
128,Woodward,US,1570421187,1,71,36.43,-99.39,11.67,3.1
129,Atbasar,KZ,1570421187,0,44,51.81,68.36,8.83,3.44
130,Muriwai Beach,NZ,1570421187,63,72,-36.82,174.45,18.33,7.2
131,Krasnyy Chikoy,RU,1570421188,46,68,50.36,108.75,0.23,5.24
132,Dunedin,NZ,1570421041,70,72,-45.87,170.5,13.33,0.45
133,Poum,MK,1570421188,40,81,41.28,20.71,6.0,4.1
134,Soligalich,RU,1570421188,100,97,59.08,42.29,2.38,3.89
135,Cherskiy,RU,1570421188,15,79,68.75,161.3,-6.92,1.57
136,Kamenka,MD,1570421188,97,79,48.03,28.7,2.22,2.21
137,Husavik,CA,1570421188,48,77,50.56,-96.99,7.78,2.24
138,Hobart,AU,1570421188,75,44,-42.88,147.33,14.44,4.1
139,Ponta do Sol,BR,1570421189,95,62,-20.63,-46.0,22.1,2.18
140,Nelson Bay,AU,1570421189,75,73,-32.72,152.14,23.89,7.7
141,Pascagoula,US,1570421189,1,94,30.37,-88.56,26.0,1.5
142,Inta,RU,1570421189,100,92,66.04,60.13,-0.09,5.15
143,Ibimirim,BR,1570421189,0,79,-8.54,-37.69,20.01,4.99
144,Koumac,NC,1570421189,0,76,-20.56,164.28,21.58,7.62
145,Great Bend,US,1570421189,1,93,38.36,-98.78,10.0,1.89
146,Axim,GH,1570421190,47,87,4.87,-2.24,24.89,4.0
147,Galesong,ID,1570421013,20,38,-5.32,119.37,34.0,3.1
148,Yanam,IN,1570421190,20,74,16.73,82.22,30.0,3.1
149,Krasnoarmeysk,RU,1570421190,90,97,56.12,38.15,2.22,5.0
150,High Level,CA,1570421190,75,53,58.52,-117.13,10.0,3.1
151,Qarqin,AF,1570421190,0,37,37.41,66.03,21.0,4.9
152,Castro,CL,1570421190,40,81,-42.48,-73.76,7.0,3.6
153,Geraldton,CA,1570421190,40,93,49.72,-86.95,7.0,5.7
154,Kaitangata,NZ,1570421191,98,71,-46.28,169.85,12.22,1.34
155,Port-Gentil,GA,1570421191,88,86,-0.72,8.78,25.44,5.58
156,Rodez,FR,1570421191,90,100,44.35,2.57,12.22,4.6
157,Atambua,ID,1570421191,8,64,-9.11,124.89,26.27,4.04
158,Grafton,AU,1570421191,0,19,-29.69,152.93,39.44,5.1
159,Thompson,CA,1570421191,75,86,55.74,-97.86,3.0,2.1
160,Kautokeino,NO,1570421191,100,90,69.01,23.04,0.48,3.65
161,Terney,RU,1570421191,0,43,45.05,136.61,13.12,2.91
162,Vila do Maio,CV,1570421192,75,88,15.13,-23.22,26.0,4.6
163,Bambous Virieux,MU,1570421053,40,88,-20.34,57.76,23.0,6.2
164,Mar del Plata,AR,1570421192,80,66,-46.43,-67.52,8.8,11.19
165,Ribeira Grande,PT,1570421192,69,94,38.52,-28.7,20.36,9.85
166,Santo Amaro da Imperatriz,BR,1570421192,40,88,-27.69,-48.78,18.0,3.1
167,Livingston,US,1570421010,90,100,40.8,-74.31,21.11,1.5
168,Igarka,RU,1570421192,88,85,67.47,86.57,0.21,6.04
169,Marawi,PH,1570421192,93,78,8.0,124.29,29.44,3.13
170,Berlevag,NO,1570421193,40,100,70.86,29.09,2.0,1.0
171,Sisimiut,GL,1570421193,15,72,66.94,-53.67,1.12,3.49
172,Seydi,NE,1570421193,0,57,13.34,7.75,27.41,3.0
173,Elko,US,1570421193,1,42,40.83,-115.76,8.33,2.1
174,Rio Gallegos,AR,1570421193,40,69,-51.62,-69.22,5.0,4.1
175,Barbastro,ES,1570421193,64,71,42.04,0.13,14.44,7.2
176,San Carlos de Bariloche,AR,1570421193,75,86,-41.13,-71.31,4.0,6.7
177,Myaundzha,RU,1570421193,0,68,63.05,147.18,-11.2,1.53
178,Lebu,ET,1570421047,10,83,8.96,38.73,9.98,2.04
179,Mukacheve,UA,1570421194,60,100,48.44,22.72,0.56,2.23
180,Martapura,ID,1570421194,100,57,-3.41,114.85,31.37,3.79
181,San Patricio,PY,1570421194,36,96,-26.98,-56.83,14.97,2.06
182,Roncesvalles,CO,1570421194,75,100,4.01,-75.61,18.0,1.5
183,Saint-Pierre,FR,1570421194,90,100,48.95,4.24,12.0,5.1
184,Kokopo,PG,1570421194,75,57,-4.34,152.27,31.04,0.39
185,Mayumba,GA,1570421194,100,89,-3.44,10.65,24.8,6.12
186,Eureka,US,1570421026,1,93,40.8,-124.16,12.78,4.73
187,Pangoa,PE,1570421195,100,99,-12.12,-73.0,19.96,0.88
188,Westport,US,1570420977,90,77,41.14,-73.36,21.11,6.7
189,Touros,BR,1570421195,75,78,-5.2,-35.46,25.0,5.1
190,Hasaki,JP,1570421195,75,78,35.73,140.83,23.89,5.7
191,Hualmay,PE,1570421195,16,92,-11.1,-77.61,15.75,6.68
192,Saint-Joseph,FR,1570421195,0,87,43.56,6.97,17.78,1.0
193,Flinders,AU,1570421195,90,72,-34.58,150.85,23.33,4.1
194,Esperance,AU,1570421196,75,87,-33.86,121.89,15.0,4.1
195,Nuuk,GL,1570421196,0,77,64.17,-51.74,0.0,2.6
196,Huarmey,PE,1570421196,48,93,-10.07,-78.15,15.76,6.44
197,Casino,AU,1570421196,0,15,-28.86,153.05,38.33,3.1
198,Vardo,US,1570421196,20,88,39.62,-77.74,20.0,1.5
199,Shahpur,IN,1570421196,21,78,22.19,77.91,25.44,1.99
200,Atocha,AR,1570421196,0,66,-24.82,-65.48,14.0,1.5
201,Hobyo,SO,1570421168,35,71,5.35,48.53,26.38,3.01
202,Kruisfontein,ZA,1570421197,100,84,-34.0,24.73,14.45,0.67
203,Mwene-Ditu,CD,1570421197,100,91,-7.01,23.45,19.94,0.89
204,Kabompo,ZM,1570421197,71,52,-13.6,24.21,18.14,1.82
205,Cap Malheureux,MU,1570421197,40,88,-19.98,57.61,23.0,6.2
206,Lompoc,US,1570421197,1,45,34.64,-120.46,19.0,2.1
207,Igdir,IR,1570421197,20,75,37.52,45.24,8.0,2.1
208,Leh,IN,1570421197,99,56,34.16,77.58,-0.72,3.38
209,Padang,ID,1570421198,100,82,-0.92,100.36,25.62,5.62
210,Saldanha,PT,1570421198,9,50,41.42,-6.55,14.43,0.59
211,San Cristobal,HN,1570421198,75,91,14.68,-86.92,19.81,2.02
212,Thinadhoo,MV,1570421198,91,76,0.53,72.93,27.85,5.12
213,Emerald,AU,1570421198,0,14,-23.53,148.16,37.22,3.6
214,Dhidhdhoo,MV,1570421198,97,73,6.88,73.1,28.35,3.91
215,Birjand,IR,1570421198,0,14,32.86,59.22,14.0,5.1
216,Bela,PK,1570421199,0,52,26.23,66.31,24.74,1.15
217,Yerbogachen,RU,1570421199,100,77,61.28,108.01,0.39,4.32
218,Kyabram,AU,1570421199,100,41,-36.31,145.05,18.33,2.39
219,Matay,EG,1570421199,0,73,28.42,30.79,19.66,4.55
220,Airai,TL,1570421199,7,42,-8.93,125.41,30.52,2.3
221,Vaitape,PF,1570421199,100,85,-16.52,-151.75,25.07,8.09
222,Kasulu,TZ,1570421199,20,83,-4.57,30.11,21.0,1.25
223,Honiara,SB,1570421200,75,70,-9.43,159.96,32.0,4.6
224,Lorengau,PG,1570421200,28,77,-2.02,147.27,28.78,3.68
225,Los Llanos de Aridane,ES,1570421200,90,69,28.66,-17.92,23.0,7.7
226,Cooma,AU,1570421200,69,32,-36.24,149.13,21.0,6.2
227,Huilong,CN,1570421200,100,89,31.15,106.5,17.25,3.78
228,Iqaluit,CA,1570421200,75,86,63.75,-68.52,3.0,5.1
229,Ostrovnoy,RU,1570421200,100,96,68.05,39.51,0.01,4.76
230,Mpulungu,ZM,1570421201,57,68,-8.77,31.12,18.7,2.42
231,Rock Springs,US,1570421201,1,24,41.59,-109.2,7.0,3.1
232,Kisangani,CD,1570421201,100,99,0.52,25.21,21.31,1.0
233,Itarema,BR,1570421201,8,84,-2.92,-39.92,23.97,3.12
234,Chicama,PE,1570421201,75,87,-7.84,-79.15,16.0,4.1
235,Tiznit,MA,1570421076,0,77,29.7,-9.73,20.79,1.87
236,Rawson,AR,1570421201,10,41,-43.3,-65.11,11.3,15.88
237,Sampit,ID,1570421201,94,60,-2.54,112.95,30.83,2.44
238,Port Hedland,AU,1570421202,0,62,-20.31,118.58,31.0,6.7
239,Dikson,RU,1570421202,55,79,73.51,80.55,-4.68,11.68
240,San Rafael,AR,1570421202,1,28,-34.61,-68.33,14.45,0.72
241,Damghan,IR,1570421202,0,28,36.17,54.34,12.4,2.36
242,Almeirim,BR,1570421202,6,83,-1.53,-52.58,23.98,0.72
243,Zhigalovo,RU,1570421202,98,75,54.81,105.15,1.14,2.47
244,Puerto Colombia,CO,1570421202,75,88,10.99,-74.96,27.0,1.5
245,Turuvekere,IN,1570421203,58,78,13.16,76.67,22.8,1.92
246,Sao Gabriel da Cachoeira,BR,1570421203,68,78,-0.13,-67.09,25.33,0.72
247,Kalmunai,LK,1570421203,100,80,7.42,81.82,25.92,0.4
248,Lauria,IT,1570421203,100,93,40.05,15.84,15.0,2.81
249,Christiansburg,US,1570420993,90,100,37.13,-80.41,19.0,1.87
250,Khatanga,RU,1570421203,0,87,71.98,102.47,-5.04,4.04
251,Mersing,MY,1570421203,66,51,2.43,103.84,32.92,1.07
252,Vestmannaeyjar,IS,1570421203,100,81,63.44,-20.27,9.15,13.8
253,Kassala,SD,1570421204,0,63,15.45,36.38,27.69,4.53
254,Abu Samrah,SY,1570421204,0,89,35.3,37.18,16.8,3.51
255,Adrar,DZ,1570421204,0,19,27.87,-0.29,23.0,4.6
256,Qasigiannguit,GL,1570421204,100,97,68.82,-51.19,0.0,3.6
257,Nisia Floresta,BR,1570421204,40,78,-6.09,-35.21,26.0,5.1
258,Hoquiam,US,1570420931,1,82,46.98,-123.89,13.0,2.1
259,Vestmanna,FO,1570421204,76,87,62.16,-7.17,10.0,14.4
260,Bengbu,CN,1570421205,100,78,32.92,117.38,14.42,1.73
261,Najran,SA,1570421205,0,35,17.54,44.22,22.0,0.12
262,Vorobyevka,RU,1570421205,100,72,50.65,40.92,3.63,5.84
263,Yulara,AU,1570421205,0,18,-25.24,130.99,31.0,5.1
264,Xichang,CN,1570421205,87,87,27.88,102.25,15.18,2.33
265,Mount Gambier,AU,1570421205,90,67,-37.83,140.78,15.0,7.2
266,La Ronge,CA,1570421205,90,65,55.1,-105.3,7.0,2.6
267,Fortuna,US,1570421139,1,93,40.6,-124.16,13.33,6.45
268,Pilar,AR,1570421206,0,50,-34.46,-58.91,17.0,3.6
269,Logrono,ES,1570421206,79,81,42.47,-2.45,12.0,1.0
270,Taksimo,RU,1570421075,26,47,56.36,114.84,-2.14,2.95
271,Sola,TZ,1570421206,43,65,-3.17,33.8,19.92,4.9
272,Hessisch Oldendorf,DE,1570421206,0,80,52.17,9.25,4.44,2.6
273,Santa Cruz,BR,1570421206,24,89,-6.22,-36.02,20.11,4.88
274,Mana,NG,1570421206,0,74,13.03,5.27,25.55,3.51
275,Qazanbulaq,AZ,1570421206,75,55,40.62,46.65,21.0,6.2
276,Grand Gaube,MU,1570421207,40,88,-20.01,57.66,23.0,6.2
277,San Clemente,US,1570421207,1,77,33.43,-117.61,21.67,1.5
278,Ginda,IN,1570421207,75,88,30.69,78.49,23.0,0.49
279,Fredericton,CA,1570420950,90,82,45.97,-66.65,13.0,6.7
280,Oktyabrskiy,RU,1570421207,90,91,55.61,37.97,2.22,7.0
281,Jumla,NP,1570421207,49,67,29.28,82.18,13.89,0.59
282,Dabakala,CI,1570421207,94,98,8.36,-4.43,20.84,1.83
283,Karratha,AU,1570421208,34,7,-20.74,116.85,39.7,4.96
284,Kuliyapitiya,LK,1570421208,20,78,7.47,80.04,28.0,1.5
285,Sioux Lookout,CA,1570420995,90,87,50.1,-91.92,7.0,3.6
286,Umm Kaddadah,SD,1570421208,99,61,13.6,26.69,24.12,4.55
287,Barsana,IN,1570421208,90,40,27.65,77.38,27.46,1.1
288,Cockburn Town,TC,1570421039,97,75,21.46,-71.14,28.74,6.08
289,Sault Sainte Marie,CA,1570421208,20,87,46.49,-84.36,12.0,2.6
290,Bidara,IN,1570421208,100,78,17.91,77.52,24.75,1.96
291,Port Hardy,CA,1570421208,90,93,50.7,-127.42,10.0,6.7
292,Ambilobe,MG,1570421209,0,70,-13.19,49.05,23.37,4.87
293,West Odessa,US,1570421209,1,59,31.84,-102.48,24.0,11.3
294,Indramayu,ID,1570421209,4,37,-4.05,103.78,29.04,2.62
295,Christchurch,NZ,1570421209,9,48,-43.53,172.64,18.89,4.6
296,Nara,JP,1570421073,20,53,34.68,135.8,27.0,3.6
297,Kukuna,SL,1570421209,75,88,8.64,-12.57,23.0,4.6
298,Syamzha,RU,1570421209,100,97,60.02,41.06,0.91,4.33
299,Tamiahua,MX,1570421209,93,80,21.28,-97.45,27.82,3.86
300,Sao Filipe,CV,1570421210,100,87,14.9,-24.5,26.1,6.81
301,Waitati,NZ,1570421210,70,72,-45.75,170.57,13.33,0.45
302,Nha Trang,VN,1570421210,20,59,12.24,109.19,32.0,4.1
303,Mancora,PE,1570421210,61,88,-4.1,-81.05,18.46,10.37
304,Cayenne,GF,1570421056,40,100,4.94,-52.33,23.0,2.01
305,Viedma,AR,1570421210,100,29,-40.81,-62.99,17.78,10.57
306,Coquimbo,CL,1570421210,0,76,-29.95,-71.34,13.89,1.5
307,Poronaysk,RU,1570421211,1,44,49.22,143.1,15.35,4.94
308,Constitucion,MX,1570421211,75,51,23.99,-104.67,21.11,2.1
309,Maniitsoq,GL,1570421211,0,55,65.42,-52.9,1.6,2.2
310,Presidencia Roque Saenz Pena,AR,1570421211,0,76,-26.79,-60.44,14.78,1.57
311,Coahuayana,MX,1570421211,4,95,18.62,-100.35,22.0,0.88
312,Mataram,ID,1570421211,39,39,-5.32,105.06,32.81,0.69
313,Bubaque,GW,1570421211,100,73,11.28,-15.83,28.32,3.47
314,Alofi,NU,1570421212,88,61,-19.06,-169.92,26.0,8.2
315,Hagere Hiywet,ET,1570421212,0,89,8.98,37.85,10.2,1.76
316,Nyagan,RU,1570421212,100,80,62.14,65.43,3.35,1.31
317,Vostok,RU,1570421212,0,49,46.45,135.83,13.31,2.83
318,Georgetown,GY,1570421035,20,100,6.8,-58.16,24.0,2.1
319,Nanakuli,US,1570421212,90,65,21.39,-158.15,28.33,1.5
320,Auki,NG,1570421212,0,85,12.18,6.51,22.72,2.72
321,Katsuura,JP,1570421084,20,57,33.93,134.5,24.0,2.1
322,Lezajsk,PL,1570421212,20,100,50.26,22.42,-1.11,1.5
323,Madhipura,IN,1570421213,64,64,25.92,86.78,28.67,1.16
324,Anchorage,US,1570421085,75,45,61.22,-149.89,8.0,6.2
325,Gol,IN,1570421213,61,53,25.38,72.44,27.71,1.79
326,San Buenaventura,MX,1570421213,5,40,27.06,-101.55,30.0,0.45
327,Havre-Saint-Pierre,CA,1570421213,75,100,50.23,-63.6,4.0,1.5
328,Samarai,PG,1570421213,55,75,-10.62,150.67,26.13,4.44
329,Kushiro,JP,1570421213,75,59,43.11,144.15,16.0,7.2
330,Floro,NO,1570421213,0,80,61.6,5.03,5.0,4.1
331,Inhambane,MZ,1570421214,11,96,-23.87,35.38,17.32,0.72
332,San Jose,HN,1570421103,90,100,14.25,-87.96,21.0,2.1
333,Dawei,MM,1570421214,100,72,14.07,98.19,27.81,3.34
334,Qingdao,CN,1570421214,90,67,36.09,120.35,16.0,3.0
335,Tiarei,PF,1570421214,75,74,-17.53,-149.33,26.0,3.6
336,Luanda,AO,1570421029,75,88,-8.83,13.24,23.0,2.1
337,Te Anau,NZ,1570421214,100,80,-45.41,167.72,7.17,3.69
338,Shingu,JP,1570421214,40,61,33.72,135.99,27.0,2.6
339,Yatou,CM,1570421214,75,100,3.63,9.81,23.0,4.04
340,Avera,US,1570421182,40,78,33.19,-82.53,23.33,3.1
341,Shurugwi,ZW,1570421215,6,39,-19.67,30.0,14.08,2.62
342,La Rioja,AR,1570421126,0,56,-29.41,-66.86,10.84,0.23
343,Palmerston North,NZ,1570421215,60,60,-40.35,175.62,17.78,2.24
344,Chegdomyn,RU,1570421215,100,55,51.13,133.04,9.76,3.95
345,Moose Factory,CA,1570421215,90,76,51.26,-80.61,11.0,7.7
346,Batemans Bay,AU,1570421215,100,39,-35.71,150.18,23.33,2.68
347,Hambantota,LK,1570421192,40,94,6.12,81.12,26.0,1.5
348,Bogorodskoye,RU,1570421215,100,61,52.37,140.44,9.04,6.47
349,Knysna,ZA,1570421215,75,81,-34.04,23.05,12.0,2.6
350,Lhokseumawe,ID,1570421216,100,73,5.18,97.15,26.82,1.14
351,Ayr,AU,1570421216,25,46,-19.58,147.4,30.0,3.51
352,Pangnirtung,CA,1570421216,94,94,66.15,-65.72,-4.36,1.41
353,Evanston,US,1570420962,90,62,42.04,-87.69,15.0,4.1
354,Coos Bay,US,1570421216,1,82,43.37,-124.22,14.0,6.7
355,Bilibino,RU,1570421216,99,84,68.06,166.44,-11.95,1.94
356,Vallenar,CL,1570421216,6,48,-28.58,-70.76,13.4,1.78
357,Lasa,CY,1570421216,40,69,34.92,32.53,24.0,2.1
358,Shache,CN,1570421217,100,82,38.42,77.24,20.56,6.32
359,Kavieng,PG,1570421217,1,75,-2.57,150.8,28.66,6.3
360,Arbagar,RU,1570421217,100,31,51.94,116.28,4.39,8.9
361,Takoradi,GH,1570421217,61,95,4.89,-1.75,22.75,1.47
362,Lodwar,KE,1570421217,15,52,3.12,35.6,26.71,7.77
363,Byron Bay,AU,1570421217,0,69,-28.65,153.62,38.33,6.7
364,Kirakira,SB,1570421217,34,86,-10.46,161.92,26.9,8.23
365,Aklavik,CA,1570421023,75,67,68.22,-135.01,0.0,3.6
366,Kristiansund,NO,1570421218,0,80,63.12,7.73,1.0,4.1
367,Fairbanks,US,1570421119,90,86,64.84,-147.72,1.0,4.1
368,Arman,RU,1570421218,0,71,59.7,150.17,-2.63,2.57
369,Souillac,FR,1570421068,40,93,45.6,-0.6,10.56,3.37
370,La Foa,NC,1570421218,0,42,-21.71,165.83,29.0,6.2
371,Gizo,IL,1570421218,40,73,31.8,34.94,22.0,2.6
372,Bolshevik,BY,1570421218,40,87,54.01,27.57,0.0,2.0
373,Fort Nelson,CA,1570421218,90,62,58.81,-122.69,14.0,4.6
374,Carnarvon,ZA,1570421024,3,49,-30.97,22.13,10.02,7.13
375,Port Blair,IN,1570421219,96,71,11.67,92.75,27.86,2.05
376,Ajdabiya,LY,1570421220,37,63,30.75,20.22,24.25,1.67
377,Lively,US,1570421220,1,45,33.6,-99.18,17.22,7.2
378,Lucapa,AO,1570421220,17,87,-8.42,20.74,19.85,1.13
379,Gondanglegi,ID,1570421220,79,43,-7.75,112.01,32.01,5.37
380,Ostersund,SE,1570421221,44,95,63.18,14.64,1.0,3.1
381,Kawalu,ID,1570421221,84,57,-7.38,108.21,26.75,2.8
382,Sobolevo,RU,1570421221,0,96,54.43,31.9,-2.1,2.67
383,Gaya,IN,1570421222,20,83,24.8,85.01,28.0,1.86
384,Mildura,AU,1570421222,75,52,-34.18,142.16,18.0,3.6
385,San Juan Bautista,PY,1570421222,49,91,-26.67,-57.15,16.18,2.37
386,Naters,CH,1570421222,75,93,46.32,7.99,12.22,1.0
387,Beloha,MG,1570421222,0,65,-25.17,45.06,21.17,3.93
388,Novo Aripuana,BR,1570421222,16,70,-5.12,-60.38,25.91,0.72
389,Progreso,UY,1570421222,0,71,-34.68,-56.22,13.33,2.6
390,Alto Araguaia,BR,1570421222,5,86,-17.32,-53.22,20.69,1.54
391,Saint Anthony,US,1570421223,1,64,43.97,-111.68,6.0,1.94
392,Iwanai,JP,1570421223,100,61,42.97,140.51,16.87,2.46
393,Melo,UY,1570421223,0,95,-32.37,-54.17,9.37,2.59
394,San Quintin,PH,1570421223,0,61,17.54,120.52,30.12,1.59
395,Vuktyl,RU,1570421223,100,85,63.86,57.31,0.48,1.82
396,Shakawe,BW,1570421223,3,27,-18.36,21.84,20.23,2.24
397,Coihaique,CL,1570421224,90,86,-45.58,-72.07,5.0,1.0
398,Hithadhoo,MV,1570421224,81,77,-0.6,73.08,27.59,6.27
399,Salmon Arm,CA,1570420808,23,92,50.7,-119.29,10.56,1.01
400,Chinsali,ZM,1570421224,0,76,-10.55,32.07,16.78,2.16
401,Smidovich,RU,1570421224,20,49,48.6,133.81,14.05,6.9
402,Erenhot,CN,1570421224,10,44,43.65,111.97,10.18,8.77
403,Balsas,BR,1570421001,3,64,-7.53,-46.04,25.93,1.24
404,Thunder Bay,CA,1570421224,20,76,48.41,-89.26,10.0,4.6
405,Srednekolymsk,RU,1570421068,0,77,67.46,153.71,-6.24,3.14
406,Senneterre,CA,1570421225,90,71,48.39,-77.24,11.0,4.6
407,Port Macquarie,AU,1570421225,21,50,-31.43,152.91,38.33,6.2
408,Arica,CL,1570421225,90,77,-18.48,-70.32,15.0,2.6
409,Hudson Bay,CA,1570421225,0,80,52.86,-102.4,3.31,1.4
410,Kang,BW,1570421225,100,41,-23.67,22.79,21.02,3.23
411,Dukat,AL,1570421225,67,84,40.25,19.57,15.0,0.45
412,Doha,QA,1570421040,20,62,25.29,51.53,32.0,4.1
413,Nadym,RU,1570421226,19,77,65.53,72.51,0.75,8.54
414,Uray,RU,1570421226,100,76,60.13,64.8,6.71,2.54
415,Faanui,PF,1570421045,100,85,-16.48,-151.75,25.07,8.09
416,Emba,CY,1570421226,40,69,34.81,32.42,24.0,2.1
417,Esil,KZ,1570421226,0,50,51.96,66.41,9.55,2.86
418,Egvekinot,RU,1570421226,100,84,66.32,-179.17,-4.57,1.67
419,Mogadishu,SO,1570421111,59,86,2.04,45.34,24.88,3.91
420,Aksarka,RU,1570421207,11,84,66.56,67.8,0.17,7.96
421,Rock Sound,BS,1570421226,89,80,24.9,-76.2,27.47,6.63
422,Saint-Francois,FR,1570421226,38,95,46.42,3.91,8.33,2.1
423,Isangel,VU,1570421227,75,78,-19.55,169.27,26.0,5.1
424,Lata,IN,1570421074,100,61,30.78,78.62,4.03,2.29
425,Dzheguta,RU,1570421227,98,94,43.97,42.04,6.55,2.14
426,Mapiripan,CO,1570421227,100,85,2.89,-72.13,24.22,1.8
427,Mareeba,AU,1570421227,2,45,-16.99,145.42,30.0,4.6
428,Ouadda,CF,1570421227,94,98,8.07,22.4,19.1,1.9
429,Soller,DE,1570421227,90,93,50.73,6.56,10.0,2.6
430,Bhabua,IN,1570421227,0,64,25.04,83.61,27.12,1.09
431,Kaa-Khem,RU,1570421228,5,65,51.7,94.56,8.51,1.47
432,Itaugua,PY,1570421228,0,88,-25.38,-57.33,18.0,2.1
433,Faya,SA,1570421228,0,41,18.39,42.45,18.0,0.69
434,Torbay,CA,1570421228,20,93,47.66,-52.73,6.67,3.6
435,Whyalla,AU,1570421228,100,72,-33.04,137.58,17.0,5.7
436,Manta,RO,1570421207,100,64,45.1,24.1,7.72,0.83
437,Panzhihua,CN,1570421228,76,83,26.59,101.72,20.11,1.13
438,Saint-Georges,CA,1570421228,93,87,46.12,-70.67,14.44,1.79
439,Kaoma,ZM,1570421229,32,47,-14.8,24.8,17.96,2.83
440,Pandan,PH,1570421229,23,73,11.72,122.09,28.64,4.2
441,Noumea,NC,1570421229,0,42,-22.28,166.46,29.0,6.2
442,Sorong,ID,1570421229,91,83,-0.86,131.25,28.1,2.66
443,Gemena,CD,1570421229,92,92,3.25,19.78,21.36,0.56
444,Muyezerskiy,RU,1570421229,100,97,63.93,31.65,-0.13,1.61
445,Hohhot,CN,1570421229,20,66,40.81,111.65,10.0,4.0
446,Yangambi,CD,1570421230,100,99,0.77,24.47,21.53,2.04
447,Katherine,AU,1570421230,40,17,-14.47,132.26,35.0,3.6
448,Nandi,IN,1570421230,75,100,13.39,77.7,24.0,2.1
449,Sayyan,YE,1570421230,22,65,15.17,44.32,19.65,0.27
450,Mandalgovi,MN,1570421230,64,47,45.76,106.27,5.43,5.66
451,Vorukh,KG,1570421230,0,23,39.85,70.57,14.32,1.32
452,Coolum Beach,AU,1570421230,0,80,-26.53,153.09,35.56,4.92
453,Huanuco,PE,1570421231,100,94,-9.93,-76.24,6.69,2.1
454,Jambi,ID,1570421231,89,63,-1.6,103.62,29.27,1.94
455,Troitsko-Pechorsk,RU,1570421231,100,94,62.71,56.19,0.64,1.83
456,Peniche,PT,1570421231,0,77,39.36,-9.38,17.0,3.6
457,Bonthe,SL,1570421231,100,88,7.53,-12.5,24.93,2.9
458,Ariquemes,BR,1570421231,55,96,-9.91,-63.03,22.35,1.72
459,Sao Joao da Barra,BR,1570421231,7,90,-21.64,-41.05,21.18,1.45
460,Doka,SD,1570421231,44,90,13.52,35.76,22.42,2.66
461,Bambanglipuro,ID,1570421232,100,83,-7.95,110.28,25.01,6.21
462,Bogande,BF,1570421232,32,79,12.97,-0.14,24.23,1.9
463,Beira,ES,1570421232,0,100,43.2,-8.36,11.67,2.6
464,Uusikaupunki,FI,1570421232,0,93,60.8,21.41,2.0,1.0
465,Nhulunbuy,AU,1570421232,20,51,-12.18,136.78,30.0,5.1
466,The Pas,CA,1570421232,1,80,53.82,-101.24,4.0,3.6
467,Borzya,RU,1570421232,0,31,50.39,116.53,3.94,9.68
468,Gwadar,PK,1570421233,81,68,25.12,62.33,27.53,2.01
469,Sitka,US,1570421233,0,69,37.17,-99.65,10.56,1.79
470,Acajutla,SV,1570421233,100,70,13.59,-89.83,28.56,1.59
471,Alice Springs,AU,1570421182,0,11,-23.7,133.88,33.0,3.1
472,Laurel,US,1570421233,90,73,39.1,-76.85,22.22,2.6
473,Alta Floresta,BR,1570421233,77,95,-9.87,-56.08,21.86,0.84
474,Binzhou,CN,1570421233,0,57,37.38,117.96,18.33,0.45
475,Basco,US,1570421234,1,93,40.33,-91.2,13.33,1.5
476,Kargasok,RU,1570421234,88,92,59.06,80.87,8.91,1.61
477,Mount Isa,AU,1570421234,0,8,-20.73,139.49,36.0,4.6
478,Aljezur,PT,1570421234,46,81,37.31,-8.8,19.44,6.71
479,Naze,NG,1570421234,75,100,5.43,7.07,23.0,1.36
480,Victor Harbor,AU,1570421234,75,87,-35.55,138.62,15.0,5.7
481,Chanika,MW,1570421234,0,69,-12.93,34.19,19.89,0.82
482,Nanyamba,MZ,1570421235,40,100,-10.69,39.81,22.0,2.6
483,Kochubey,RU,1570421235,100,62,44.39,46.54,16.69,9.33
484,Mbini,GQ,1570421235,40,100,1.58,9.62,23.0,2.62
485,Kahului,US,1570421235,40,61,20.89,-156.47,28.0,4.6
486,Wahiawa,US,1570420983,90,69,21.5,-158.02,28.33,3.1
487,Vila,IT,1570421235,0,100,45.18,8.4,13.33,2.1
488,Laibin,CN,1570421235,100,76,23.74,109.23,23.49,1.53
489,Calvini,RO,1570421235,75,81,45.25,26.29,7.0,6.2
490,Mbandaka,CD,1570421236,100,98,0.05,18.26,21.81,0.8
491,Ayia Galini,GR,1570420955,20,82,35.1,24.68,21.0,4.6
492,Paka,CF,1570421236,100,98,4.15,15.03,19.3,0.66
493,Guozhen,CN,1570421236,100,66,29.3,113.14,17.23,4.27
494,Zhuanghe,CN,1570421236,34,45,39.7,122.97,17.82,5.24
495,Pombas,BR,1570421236,71,76,-15.9,-54.74,21.05,2.27
496,Urcos,PE,1570421236,40,65,-13.69,-71.62,8.0,0.5
497,Ilulissat,GL,1570421237,100,97,69.22,-51.1,0.0,3.6
498,Padilla,CO,1570421237,75,78,3.23,-76.31,22.0,3.1
499,Taoudenni,ML,1570421101,0,11,22.68,-3.98,27.34,3.06
500,Jiwani,PK,1570421237,36,70,25.05,61.74,27.37,2.44
501,Nome,US,1570421237,1,88,30.04,-94.42,25.56,1.02
502,Kushima,JP,1570421237,75,94,31.5,131.29,24.0,3.1
503,Columbia,US,1570421213,1,78,34.0,-81.03,22.22,3.68
504,Suamico,US,1570421237,1,66,44.63,-88.04,13.33,2.6
505,Ladyzhyn,UA,1570421237,44,79,48.68,29.26,2.22,2.41
506,Wildeshausen,DE,1570421238,0,93,52.9,8.44,3.89,3.6
507,Handan,CN,1570421238,0,49,36.58,114.48,19.38,2.1
508,Chimoio,MZ,1570421238,0,100,-19.11,33.48,17.0,0.87
509,Port Moresby,PG,1570421238,40,70,-9.47,147.16,30.0,7.7
510,Bad Kreuznach,DE,1570421238,90,100,49.84,7.87,10.0,5.1
511,Wuda,CN,1570421238,27,18,39.5,106.72,12.64,1.8
512,Strezhevoy,RU,1570421238,0,93,60.73,77.6,6.0,1.0
513,Buala,SB,1570421238,70,76,-8.15,159.59,28.53,5.1
514,Porto Novo,BR,1570421239,75,77,-23.68,-45.44,20.0,1.0
515,Oksfjord,NO,1570421239,75,86,70.24,22.35,4.44,5.1
516,Laguna,BZ,1570421239,40,94,16.17,-88.94,26.0,0.04
517,Nemuro,JP,1570421239,75,62,43.32,145.57,15.0,4.1
518,Melita,CA,1570421239,56,75,49.27,-100.98,7.78,2.68
519,Bontang,ID,1570421239,33,69,0.12,117.47,30.11,0.94
520,Khyriv,UA,1570421239,0,84,49.53,22.85,-1.67,0.42
521,Kalya,IN,1570421239,75,88,12.98,77.18,24.0,1.64
522,Astoria,US,1570421240,1,82,46.19,-123.83,13.89,1.5
523,Tomatlan,MX,1570421240,95,86,19.93,-105.25,27.76,5.7
524,Bathurst,AU,1570421240,100,44,-33.42,149.58,21.67,2.24
525,Comodoro Rivadavia,AR,1570421240,75,66,-45.87,-67.48,10.0,8.7
526,Navirai,BR,1570421240,34,86,-23.07,-54.19,17.33,1.69
527,East Wenatchee Bench,US,1570421240,1,58,47.43,-120.28,12.0,2.1
528,Olinda,AU,1570421241,75,51,-37.84,145.39,18.89,3.1
529,La Romana,DO,1570421241,20,78,18.43,-68.97,28.0,2.03
530,Jasper,US,1570421147,1,100,33.83,-87.28,25.56,1.9
531,Viesca,MX,1570421241,40,32,25.34,-102.81,29.0,7.2
532,Puerto Baquerizo Moreno,EC,1570421241,98,84,-0.9,-89.6,19.73,5.28
533,Wundanyi,KE,1570421241,64,87,-3.4,38.37,18.18,3.8
534,College,US,1570421242,90,86,64.86,-147.8,1.0,4.1
535,Povolzhskiy,RU,1570421242,0,33,53.59,49.76,8.0,5.0
536,Sibolga,ID,1570421145,97,81,1.74,98.78,26.76,6.1
537,Broome,GB,1570421242,97,93,52.47,1.45,12.78,1.25
538,Konstantinovskoye,RU,1570421242,40,87,45.3,42.64,7.0,9.0
539,Batsfjord,NO,1570421242,75,86,70.63,29.72,3.0,4.1
540,Troitskoye,RU,1570421242,0,65,52.98,84.68,13.7,1.96
541,Sassandra,CI,1570421242,88,98,4.95,-6.09,21.53,1.03
542,Paraiso,BR,1570421243,40,94,-0.03,-51.17,28.0,2.6
543,Saint George,GR,1570421243,75,82,39.45,22.34,17.0,2.1
544,Haines Junction,CA,1570421056,96,83,60.75,-137.51,-7.03,2.47
545,Kungurtug,RU,1570421243,24,62,50.6,97.53,6.68,0.93
546,Marienburg,DE,1570421243,0,76,52.12,9.98,4.0,2.6
547,Takaungu,KE,1570421243,20,94,-3.68,39.86,24.0,2.1
548,Pasco,US,1570421024,1,54,46.24,-119.1,14.0,1.43
549,The Valley,AI,1570421243,20,70,18.22,-63.06,29.0,5.1
550,Patiya,BD,1570421243,75,74,22.3,91.98,29.0,2.46
551,Vanavara,RU,1570421244,100,94,60.35,102.28,2.07,4.04
552,Awjilah,LY,1570421244,0,85,29.14,21.3,17.58,2.9
553,Abakaliki,NG,1570421244,100,93,6.32,8.11,23.06,1.47
554,Agadir,MA,1570421033,0,72,30.42,-9.58,17.0,3.6
555,Muravlenko,RU,1570421244,91,80,63.79,74.5,0.93,5.99
556,Kavaratti,IN,1570421244,20,70,10.57,72.64,29.0,2.1
557,Kajaani,FI,1570421244,90,93,64.22,27.73,2.0,2.6
558,Iskateley,RU,1570421244,0,88,67.68,53.15,-1.02,3.33
